[
 {
  "Country": "Afghanistan",
  "Capital City": "Kabul",
  "Latitude": 34.5289,
  "Longitude": 69.1725,
  "Population": 4011770,
  "Capital Type": "Capital"
 },
 {
  "Country": "Albania",
  "Capital City": "Tiranë (Tirana)",
  "Latitude": 41.3275,
  "Longitude": 19.8189,
  "Population": 475577,
  "Capital Type": "Capital"
 },
 {
  "Country": "Algeria",
  "Capital City": "El Djazaïr  (Algiers)",
  "Latitude": 36.7525,
  "Longitude": 3.042,
  "Population": 2693542,
  "Capital Type": "Capital"
 },
 {
  "Country": "American Samoa",
  "Capital City": "Pago Pago",
  "Latitude": -14.2781,
  "Longitude": -170.7025,
  "Population": 48526,
  "Capital Type": "Capital"
 },
 {
  "Country": "Andorra",
  "Capital City": "Andorra la Vella",
  "Latitude": 42.5078,
  "Longitude": 1.5211,
  "Population": 22614,
  "Capital Type": "Capital"
 },
 {
  "Country": "Angola",
  "Capital City": "Luanda",
  "Latitude": -8.8368,
  "Longitude": 13.2343,
  "Population": 7774200,
  "Capital Type": "Capital"
 },
 {
  "Country": "Anguilla",
  "Capital City": "The Valley",
  "Latitude": 18.217,
  "Longitude": -63.0578,
  "Population": 1402,
  "Capital Type": "Capital"
 },
 {
  "Country": "Antigua and Barbuda",
  "Capital City": "St. John's",
  "Latitude": 17.1172,
  "Longitude": -61.8457,
  "Population": 20764,
  "Capital Type": "Capital"
 },
 {
  "Country": "Argentina",
  "Capital City": "Buenos Aires",
  "Latitude": -34.6051,
  "Longitude": -58.4004,
  "Population": 14966530,
  "Capital Type": "Capital"
 },
 {
  "Country": "Armenia",
  "Capital City": "Yerevan",
  "Latitude": 40.182,
  "Longitude": 44.5146,
  "Population": 1080324,
  "Capital Type": "Capital"
 },
 {
  "Country": "Aruba",
  "Capital City": "Oranjestad",
  "Latitude": 12.524,
  "Longitude": -70.027,
  "Population": 29877,
  "Capital Type": "Capital"
 },
 {
  "Country": "Australia",
  "Capital City": "Canberra",
  "Latitude": -35.2835,
  "Longitude": 149.1281,
  "Population": 447692,
  "Capital Type": "Capital"
 },
 {
  "Country": "Austria",
  "Capital City": "Wien (Vienna)",
  "Latitude": 48.2064,
  "Longitude": 16.3707,
  "Population": 1900547,
  "Capital Type": "Capital"
 },
 {
  "Country": "Azerbaijan",
  "Capital City": "Baku",
  "Latitude": 40.3777,
  "Longitude": 49.892,
  "Population": 2285729,
  "Capital Type": "Capital"
 },
 {
  "Country": "Bahamas",
  "Capital City": "Nassau",
  "Latitude": 25.0582,
  "Longitude": -77.3431,
  "Population": 279668,
  "Capital Type": "Capital"
 },
 {
  "Country": "Bahrain",
  "Capital City": "Al-Manamah (Manama)",
  "Latitude": 26.2154,
  "Longitude": 50.5832,
  "Population": 564631,
  "Capital Type": "Capital"
 },
 {
  "Country": "Bangladesh",
  "Capital City": "Dhaka",
  "Latitude": 23.7104,
  "Longitude": 90.4074,
  "Population": 19578421,
  "Capital Type": "Capital"
 },
 {
  "Country": "Barbados",
  "Capital City": "Bridgetown",
  "Latitude": 13.1,
  "Longitude": -59.6167,
  "Population": 89201,
  "Capital Type": "Capital"
 },
 {
  "Country": "Belarus",
  "Capital City": "Minsk",
  "Latitude": 53.9,
  "Longitude": 27.5667,
  "Population": 2004672,
  "Capital Type": "Capital"
 },
 {
  "Country": "Belgium",
  "Capital City": "Bruxelles-Brussel",
  "Latitude": 50.8467,
  "Longitude": 4.3499,
  "Population": 2049510,
  "Capital Type": "Capital"
 },
 {
  "Country": "Belize",
  "Capital City": "Belmopan",
  "Latitude": 17.25,
  "Longitude": -88.7667,
  "Population": 22964,
  "Capital Type": "Capital"
 },
 {
  "Country": "Benin",
  "Capital City": "Cotonou",
  "Latitude": 6.3654,
  "Longitude": 2.4183,
  "Population": 685458,
  "Capital Type": "Economic Capital"
 },
 {
  "Country": "Bermuda",
  "Capital City": "Hamilton",
  "Latitude": 32.2915,
  "Longitude": -64.778,
  "Population": 10073,
  "Capital Type": "Capital"
 },
 {
  "Country": "Bhutan",
  "Capital City": "Thimphu",
  "Latitude": 27.4661,
  "Longitude": 89.6419,
  "Population": 203297,
  "Capital Type": "Capital"
 },
 {
  "Country": "Bolivia (Plurinational State of)",
  "Capital City": "La Paz",
  "Latitude": -16.5,
  "Longitude": -68.15,
  "Population": 1814087,
  "Capital Type": "Seat of Government"
 },
 {
  "Country": "Bosnia and Herzegovina",
  "Capital City": "Sarajevo",
  "Latitude": 43.8486,
  "Longitude": 18.3564,
  "Population": 342577,
  "Capital Type": "Capital"
 },
 {
  "Country": "Botswana",
  "Capital City": "Gaborone",
  "Latitude": -24.6545,
  "Longitude": 25.9086,
  "Population": 269338,
  "Capital Type": "Capital"
 },
 {
  "Country": "Brazil",
  "Capital City": "Brasília",
  "Latitude": -15.7797,
  "Longitude": -47.9297,
  "Population": 4469585,
  "Capital Type": "Capital"
 },
 {
  "Country": "British Virgin Islands",
  "Capital City": "Road Town",
  "Latitude": 18.4167,
  "Longitude": -64.6167,
  "Population": 15137,
  "Capital Type": "Capital"
 },
 {
  "Country": "Brunei Darussalam",
  "Capital City": "Bandar Seri Begawan",
  "Latitude": 4.9403,
  "Longitude": 114.9481,
  "Population": 40781,
  "Capital Type": "Capital"
 },
 {
  "Country": "Bulgaria",
  "Capital City": "Sofia",
  "Latitude": 42.6975,
  "Longitude": 23.3242,
  "Population": 1272418,
  "Capital Type": "Capital"
 },
 {
  "Country": "Burkina Faso",
  "Capital City": "Ouagadougou",
  "Latitude": 12.3642,
  "Longitude": -1.5383,
  "Population": 2531381,
  "Capital Type": "Capital"
 },
 {
  "Country": "Burundi",
  "Capital City": "Bujumbura",
  "Latitude": -3.3822,
  "Longitude": 29.3644,
  "Population": 898968,
  "Capital Type": "Capital"
 },
 {
  "Country": "Cabo Verde",
  "Capital City": "Praia",
  "Latitude": 14.9215,
  "Longitude": -23.5087,
  "Population": 167504,
  "Capital Type": "Capital"
 },
 {
  "Country": "Cambodia",
  "Capital City": "Phnum Pénh (Phnom Penh)",
  "Latitude": 11.5625,
  "Longitude": 104.916,
  "Population": 1952329,
  "Capital Type": "Capital"
 },
 {
  "Country": "Cameroon",
  "Capital City": "Yaoundé",
  "Latitude": 3.8667,
  "Longitude": 11.5167,
  "Population": 3655656,
  "Capital Type": "Capital"
 },
 {
  "Country": "Canada",
  "Capital City": "Ottawa-Gatineau",
  "Latitude": 45.4166,
  "Longitude": -75.698,
  "Population": 1363159,
  "Capital Type": "Capital"
 },
 {
  "Country": "Caribbean Netherlands",
  "Capital City": "Kralendijk",
  "Latitude": 12.15,
  "Longitude": -68.2667,
  "Population": 11313,
  "Capital Type": "Capital"
 },
 {
  "Country": "Cayman Islands",
  "Capital City": "George Town",
  "Latitude": 19.2866,
  "Longitude": -81.3744,
  "Population": 34875,
  "Capital Type": "Capital"
 },
 {
  "Country": "Central African Republic",
  "Capital City": "Bangui",
  "Latitude": 4.3612,
  "Longitude": 18.555,
  "Population": 850946,
  "Capital Type": "Capital"
 },
 {
  "Country": "Chad",
  "Capital City": "N'Djaména",
  "Latitude": 12.1067,
  "Longitude": 15.0444,
  "Population": 1322679,
  "Capital Type": "Capital"
 },
 {
  "Country": "Channel Islands",
  "Capital City": "St. Helier",
  "Latitude": 49.188,
  "Longitude": -2.1049,
  "Population": 34386,
  "Capital Type": "Capital"
 },
 {
  "Country": "Channel Islands",
  "Capital City": "St. Peter Port",
  "Latitude": 49.4598,
  "Longitude": -2.5353,
  "Population": 16271,
  "Capital Type": "Capital"
 },
 {
  "Country": "Chile",
  "Capital City": "Santiago",
  "Latitude": -33.4569,
  "Longitude": -70.6483,
  "Population": 6680371,
  "Capital Type": "Capital"
 },
 {
  "Country": "China",
  "Capital City": "Beijing",
  "Latitude": 39.9075,
  "Longitude": 116.3972,
  "Population": 19617963,
  "Capital Type": "Capital"
 },
 {
  "Country": "China, Hong Kong SAR",
  "Capital City": "Hong Kong",
  "Latitude": 22.2796,
  "Longitude": 114.1887,
  "Population": 7428887,
  "Capital Type": "Capital"
 },
 {
  "Country": "China, Macao SAR",
  "Capital City": "Macao",
  "Latitude": 22.2006,
  "Longitude": 113.5461,
  "Population": 632418,
  "Capital Type": "Capital"
 },
 {
  "Country": "China, Taiwan Province of China",
  "Capital City": "Taibei",
  "Latitude": 25.047,
  "Longitude": 121.5457,
  "Population": 2705791,
  "Capital Type": "Others"
 },
 {
  "Country": "Colombia",
  "Capital City": "Bogotá",
  "Latitude": 4.6097,
  "Longitude": -74.0818,
  "Population": 10574409,
  "Capital Type": "Capital"
 },
 {
  "Country": "Comoros",
  "Capital City": "Moroni",
  "Latitude": -11.7022,
  "Longitude": 43.2551,
  "Population": 62351,
  "Capital Type": "Capital"
 },
 {
  "Country": "Congo",
  "Capital City": "Brazzaville",
  "Latitude": -4.2658,
  "Longitude": 15.2832,
  "Population": 2229693,
  "Capital Type": "Capital"
 },
 {
  "Country": "Cook Islands",
  "Capital City": "Rarotonga",
  "Latitude": -21.23,
  "Longitude": -159.76,
  "Population": 13067,
  "Capital Type": "Capital"
 },
 {
  "Country": "Costa Rica",
  "Capital City": "San José",
  "Latitude": 9.9278,
  "Longitude": -84.0807,
  "Population": 1357745,
  "Capital Type": "Capital"
 },
 {
  "Country": "Côte d'Ivoire",
  "Capital City": "Abidjan",
  "Latitude": 5.3453,
  "Longitude": -4.0268,
  "Population": 4920776,
  "Capital Type": "Administrative Capital"
 },
 {
  "Country": "Croatia",
  "Capital City": "Zagreb",
  "Latitude": 45.8144,
  "Longitude": 15.978,
  "Population": 685587,
  "Capital Type": "Capital"
 },
 {
  "Country": "Cuba",
  "Capital City": "La Habana (Havana)",
  "Latitude": 23.1195,
  "Longitude": -82.3785,
  "Population": 2136468,
  "Capital Type": "Capital"
 },
 {
  "Country": "Curaçao",
  "Capital City": "Willemstad",
  "Latitude": 12.1084,
  "Longitude": -68.9335,
  "Population": 144037,
  "Capital Type": "Capital"
 },
 {
  "Country": "Cyprus",
  "Capital City": "Lefkosia (Nicosia)",
  "Latitude": 35.1595,
  "Longitude": 33.3669,
  "Population": 269469,
  "Capital Type": "Capital"
 },
 {
  "Country": "Czechia",
  "Capital City": "Praha (Prague)",
  "Latitude": 50.088,
  "Longitude": 14.4208,
  "Population": 1291552,
  "Capital Type": "Capital"
 },
 {
  "Country": "Dem. People's Republic of Korea",
  "Capital City": "P'yongyang",
  "Latitude": 39.0339,
  "Longitude": 125.7543,
  "Population": 3037862,
  "Capital Type": "Capital"
 },
 {
  "Country": "Democratic Republic of the Congo",
  "Capital City": "Kinshasa",
  "Latitude": -4.3276,
  "Longitude": 15.3136,
  "Population": 13171256,
  "Capital Type": "Capital"
 },
 {
  "Country": "Denmark",
  "Capital City": "København (Copenhagen)",
  "Latitude": 55.6759,
  "Longitude": 12.5655,
  "Population": 1320826,
  "Capital Type": "Capital"
 },
 {
  "Country": "Djibouti",
  "Capital City": "Djibouti",
  "Latitude": 11.5877,
  "Longitude": 43.1447,
  "Population": 561564,
  "Capital Type": "Capital"
 },
 {
  "Country": "Dominica",
  "Capital City": "Roseau",
  "Latitude": 15.3017,
  "Longitude": -61.3881,
  "Population": 14942,
  "Capital Type": "Capital"
 },
 {
  "Country": "Dominican Republic",
  "Capital City": "Santo Domingo",
  "Latitude": 18.4896,
  "Longitude": -69.9018,
  "Population": 3172152,
  "Capital Type": "Capital"
 },
 {
  "Country": "Ecuador",
  "Capital City": "Quito",
  "Latitude": -0.2299,
  "Longitude": -78.525,
  "Population": 1822397,
  "Capital Type": "Capital"
 },
 {
  "Country": "Egypt",
  "Capital City": "Al-Qahirah (Cairo)",
  "Latitude": 30.0392,
  "Longitude": 31.2394,
  "Population": 20076002,
  "Capital Type": "Capital"
 },
 {
  "Country": "El Salvador",
  "Capital City": "San Salvador",
  "Latitude": 13.6894,
  "Longitude": -89.1872,
  "Population": 1106698,
  "Capital Type": "Capital"
 },
 {
  "Country": "Equatorial Guinea",
  "Capital City": "Malabo",
  "Latitude": 3.75,
  "Longitude": 8.7833,
  "Population": 296770,
  "Capital Type": "Capital"
 },
 {
  "Country": "Eritrea",
  "Capital City": "Asmara",
  "Latitude": 15.3333,
  "Longitude": 38.9333,
  "Population": 895863,
  "Capital Type": "Capital"
 },
 {
  "Country": "Estonia",
  "Capital City": "Tallinn",
  "Latitude": 59.437,
  "Longitude": 24.7535,
  "Population": 437027,
  "Capital Type": "Capital"
 },
 {
  "Country": "Ethiopia",
  "Capital City": "Addis Ababa",
  "Latitude": 9.025,
  "Longitude": 38.7469,
  "Population": 4399674,
  "Capital Type": "Capital"
 },
 {
  "Country": "Faeroe Islands",
  "Capital City": "Tórshavn",
  "Latitude": 62.0097,
  "Longitude": -6.7716,
  "Population": 20817,
  "Capital Type": "Capital"
 },
 {
  "Country": "Falkland Islands (Malvinas)",
  "Capital City": "Stanley",
  "Latitude": -51.7012,
  "Longitude": -57.8494,
  "Population": 2269,
  "Capital Type": "Others"
 },
 {
  "Country": "Fiji",
  "Capital City": "Suva",
  "Latitude": -18.1416,
  "Longitude": 178.4415,
  "Population": 178339,
  "Capital Type": "Capital"
 },
 {
  "Country": "Finland",
  "Capital City": "Helsinki",
  "Latitude": 60.1692,
  "Longitude": 24.9402,
  "Population": 1279096,
  "Capital Type": "Capital"
 },
 {
  "Country": "France",
  "Capital City": "Paris",
  "Latitude": 48.8534,
  "Longitude": 2.3488,
  "Population": 10900952,
  "Capital Type": "Capital"
 },
 {
  "Country": "French Guiana",
  "Capital City": "Cayenne",
  "Latitude": 4.9333,
  "Longitude": -52.3333,
  "Population": 57506,
  "Capital Type": "Capital"
 },
 {
  "Country": "French Polynesia",
  "Capital City": "Papeete",
  "Latitude": -17.5333,
  "Longitude": -149.5667,
  "Population": 136005,
  "Capital Type": "Capital"
 },
 {
  "Country": "Gabon",
  "Capital City": "Libreville",
  "Latitude": 0.3925,
  "Longitude": 9.4537,
  "Population": 813489,
  "Capital Type": "Capital"
 },
 {
  "Country": "Gambia",
  "Capital City": "Banjul",
  "Latitude": 13.4531,
  "Longitude": -16.6794,
  "Population": 437161,
  "Capital Type": "Capital"
 },
 {
  "Country": "Georgia",
  "Capital City": "Tbilisi",
  "Latitude": 41.6941,
  "Longitude": 44.8337,
  "Population": 1077333,
  "Capital Type": "Capital"
 },
 {
  "Country": "Germany",
  "Capital City": "Berlin",
  "Latitude": 52.5244,
  "Longitude": 13.4105,
  "Population": 3552123,
  "Capital Type": "Capital"
 },
 {
  "Country": "Ghana",
  "Capital City": "Accra",
  "Latitude": 5.556,
  "Longitude": -0.1969,
  "Population": 2439389,
  "Capital Type": "Capital"
 },
 {
  "Country": "Gibraltar",
  "Capital City": "Gibraltar",
  "Latitude": 36.1447,
  "Longitude": -5.3526,
  "Population": 34733,
  "Capital Type": "Capital"
 },
 {
  "Country": "Greece",
  "Capital City": "Athínai (Athens)",
  "Latitude": 37.9534,
  "Longitude": 23.749,
  "Population": 3155600,
  "Capital Type": "Capital"
 },
 {
  "Country": "Greenland",
  "Capital City": "Nuuk (Godthåb)",
  "Latitude": 64.1835,
  "Longitude": -51.7216,
  "Population": 18406,
  "Capital Type": "Capital"
 },
 {
  "Country": "Grenada",
  "Capital City": "St.George's",
  "Latitude": 12.0564,
  "Longitude": -61.7485,
  "Population": 39297,
  "Capital Type": "Capital"
 },
 {
  "Country": "Guadeloupe",
  "Capital City": "Basse-Terre",
  "Latitude": 15.9985,
  "Longitude": -61.7255,
  "Population": 58397,
  "Capital Type": "Capital"
 },
 {
  "Country": "Guam",
  "Capital City": "Hagåtña",
  "Latitude": 13.4757,
  "Longitude": 144.7489,
  "Population": 146905,
  "Capital Type": "Capital"
 },
 {
  "Country": "Guatemala",
  "Capital City": "Ciudad de Guatemala (Guatemala City)",
  "Latitude": 14.6127,
  "Longitude": -90.5307,
  "Population": 2851104,
  "Capital Type": "Capital"
 },
 {
  "Country": "Guinea",
  "Capital City": "Conakry",
  "Latitude": 9.5716,
  "Longitude": -13.6476,
  "Population": 1843121,
  "Capital Type": "Capital"
 },
 {
  "Country": "Guinea-Bissau",
  "Capital City": "Bissau",
  "Latitude": 11.8636,
  "Longitude": -15.5977,
  "Population": 558399,
  "Capital Type": "Capital"
 },
 {
  "Country": "Guyana",
  "Capital City": "Georgetown",
  "Latitude": 6.8045,
  "Longitude": -58.1553,
  "Population": 109934,
  "Capital Type": "Capital"
 },
 {
  "Country": "Haiti",
  "Capital City": "Port-au-Prince",
  "Latitude": 18.5392,
  "Longitude": -72.335,
  "Population": 2636763,
  "Capital Type": "Capital"
 },
 {
  "Country": "Holy See",
  "Capital City": "Vatican City",
  "Latitude": 41.9024,
  "Longitude": 12.4533,
  "Population": 801,
  "Capital Type": "Capital"
 },
 {
  "Country": "Honduras",
  "Capital City": "Tegucigalpa",
  "Latitude": 14.0818,
  "Longitude": -87.2068,
  "Population": 1363041,
  "Capital Type": "Capital"
 },
 {
  "Country": "Hungary",
  "Capital City": "Budapest",
  "Latitude": 47.498,
  "Longitude": 19.0399,
  "Population": 1759497,
  "Capital Type": "Capital"
 },
 {
  "Country": "Iceland",
  "Capital City": "Reykjavík",
  "Latitude": 64.1355,
  "Longitude": -21.8954,
  "Population": 216364,
  "Capital Type": "Capital"
 },
 {
  "Country": "India",
  "Capital City": "Delhi",
  "Latitude": 28.6667,
  "Longitude": 77.2167,
  "Population": 28513682,
  "Capital Type": "Capital"
 },
 {
  "Country": "Indonesia",
  "Capital City": "Jakarta",
  "Latitude": -6.2118,
  "Longitude": 106.8416,
  "Population": 10516927,
  "Capital Type": "Capital"
 },
 {
  "Country": "Iran (Islamic Republic of)",
  "Capital City": "Tehran",
  "Latitude": 35.6944,
  "Longitude": 51.4215,
  "Population": 8895947,
  "Capital Type": "Capital"
 },
 {
  "Country": "Iraq",
  "Capital City": "Baghdad",
  "Latitude": 33.3406,
  "Longitude": 44.4009,
  "Population": 6811955,
  "Capital Type": "Capital"
 },
 {
  "Country": "Ireland",
  "Capital City": "Dublin",
  "Latitude": 53.3331,
  "Longitude": -6.2489,
  "Population": 1201426,
  "Capital Type": "Capital"
 },
 {
  "Country": "Isle of Man",
  "Capital City": "Douglas",
  "Latitude": 54.15,
  "Longitude": -4.4833,
  "Population": 27171,
  "Capital Type": "Capital"
 },
 {
  "Country": "Israel",
  "Capital City": "Jerusalem",
  "Latitude": 31.769,
  "Longitude": 35.2163,
  "Population": 907062,
  "Capital Type": "Capital"
 },
 {
  "Country": "Italy",
  "Capital City": "Roma (Rome)",
  "Latitude": 41.8947,
  "Longitude": 12.4811,
  "Population": 4209710,
  "Capital Type": "Capital"
 },
 {
  "Country": "Jamaica",
  "Capital City": "Kingston",
  "Latitude": 17.997,
  "Longitude": -76.7936,
  "Population": 589083,
  "Capital Type": "Capital"
 },
 {
  "Country": "Japan",
  "Capital City": "Tokyo",
  "Latitude": 35.6895,
  "Longitude": 139.6917,
  "Population": 37468302,
  "Capital Type": "Capital"
 },
 {
  "Country": "Jordan",
  "Capital City": "Amman",
  "Latitude": 31.9552,
  "Longitude": 35.945,
  "Population": 2064582,
  "Capital Type": "Capital"
 },
 {
  "Country": "Kazakhstan",
  "Capital City": "Astana",
  "Latitude": 51.1801,
  "Longitude": 71.446,
  "Population": 1068113,
  "Capital Type": "Capital"
 },
 {
  "Country": "Kenya",
  "Capital City": "Nairobi",
  "Latitude": -1.2833,
  "Longitude": 36.8167,
  "Population": 4385853,
  "Capital Type": "Capital"
 },
 {
  "Country": "Kiribati",
  "Capital City": "Tarawa",
  "Latitude": 1.3272,
  "Longitude": 172.9813,
  "Population": 64011,
  "Capital Type": "Capital"
 },
 {
  "Country": "Kuwait",
  "Capital City": "Al Kuwayt (Kuwait City)",
  "Latitude": 29.3697,
  "Longitude": 47.9783,
  "Population": 2989270,
  "Capital Type": "Capital"
 },
 {
  "Country": "Kyrgyzstan",
  "Capital City": "Bishkek",
  "Latitude": 42.87,
  "Longitude": 74.59,
  "Population": 996319,
  "Capital Type": "Capital"
 },
 {
  "Country": "Lao People's Democratic Republic",
  "Capital City": "Vientiane",
  "Latitude": 17.9667,
  "Longitude": 102.6,
  "Population": 664754,
  "Capital Type": "Capital"
 },
 {
  "Country": "Latvia",
  "Capital City": "Riga",
  "Latitude": 56.946,
  "Longitude": 24.1059,
  "Population": 637089,
  "Capital Type": "Capital"
 },
 {
  "Country": "Lebanon",
  "Capital City": "Bayrut (Beirut)",
  "Latitude": 33.9,
  "Longitude": 35.4833,
  "Population": 2385271,
  "Capital Type": "Capital"
 },
 {
  "Country": "Lesotho",
  "Capital City": "Maseru",
  "Latitude": -29.3167,
  "Longitude": 27.4833,
  "Population": 201851,
  "Capital Type": "Capital"
 },
 {
  "Country": "Liberia",
  "Capital City": "Monrovia",
  "Latitude": 6.3005,
  "Longitude": -10.7969,
  "Population": 1418300,
  "Capital Type": "Capital"
 },
 {
  "Country": "Libya",
  "Capital City": "Tarabulus (Tripoli)",
  "Latitude": 32.8752,
  "Longitude": 13.1875,
  "Population": 1157746,
  "Capital Type": "Capital"
 },
 {
  "Country": "Liechtenstein",
  "Capital City": "Vaduz",
  "Latitude": 47.1415,
  "Longitude": 9.5215,
  "Population": 5470,
  "Capital Type": "Capital"
 },
 {
  "Country": "Lithuania",
  "Capital City": "Vilnius",
  "Latitude": 54.6892,
  "Longitude": 25.2798,
  "Population": 536055,
  "Capital Type": "Capital"
 },
 {
  "Country": "Luxembourg",
  "Capital City": "Luxembourg",
  "Latitude": 49.6117,
  "Longitude": 6.13,
  "Population": 119752,
  "Capital Type": "Capital"
 },
 {
  "Country": "Madagascar",
  "Capital City": "Antananarivo",
  "Latitude": -18.9137,
  "Longitude": 47.5361,
  "Population": 3058387,
  "Capital Type": "Capital"
 },
 {
  "Country": "Malawi",
  "Capital City": "Lilongwe",
  "Latitude": -13.9669,
  "Longitude": 33.7873,
  "Population": 1029639,
  "Capital Type": "Capital"
 },
 {
  "Country": "Malaysia",
  "Capital City": "Kuala Lumpur",
  "Latitude": 3.1412,
  "Longitude": 101.6865,
  "Population": 7563912,
  "Capital Type": "Capital"
 },
 {
  "Country": "Maldives",
  "Capital City": "Male",
  "Latitude": 4.1748,
  "Longitude": 73.5089,
  "Population": 176851,
  "Capital Type": "Capital"
 },
 {
  "Country": "Mali",
  "Capital City": "Bamako",
  "Latitude": 12.65,
  "Longitude": -8,
  "Population": 2446749,
  "Capital Type": "Capital"
 },
 {
  "Country": "Malta",
  "Capital City": "Valletta",
  "Latitude": 35.8997,
  "Longitude": 14.5147,
  "Population": 212768,
  "Capital Type": "Capital"
 },
 {
  "Country": "Marshall Islands",
  "Capital City": "Majuro",
  "Latitude": 7.0897,
  "Longitude": 171.3803,
  "Population": 30661,
  "Capital Type": "Capital"
 },
 {
  "Country": "Martinique",
  "Capital City": "Fort-de-France",
  "Latitude": 14.6089,
  "Longitude": -61.0733,
  "Population": 79361,
  "Capital Type": "Capital"
 },
 {
  "Country": "Mauritania",
  "Capital City": "Nouakchott",
  "Latitude": 18.0858,
  "Longitude": -15.9785,
  "Population": 1205414,
  "Capital Type": "Capital"
 },
 {
  "Country": "Mauritius",
  "Capital City": "Port Louis",
  "Latitude": -20.1619,
  "Longitude": 57.4989,
  "Population": 149365,
  "Capital Type": "Capital"
 },
 {
  "Country": "Mayotte",
  "Capital City": "Mamoudzou",
  "Latitude": -12.7794,
  "Longitude": 45.2272,
  "Population": 6180,
  "Capital Type": "Capital"
 },
 {
  "Country": "Mexico",
  "Capital City": "Ciudad de México (Mexico City)",
  "Latitude": 19.4273,
  "Longitude": -99.1419,
  "Population": 21580827,
  "Capital Type": "Capital"
 },
 {
  "Country": "Micronesia (Fed. States of)",
  "Capital City": "Palikir",
  "Latitude": 6.9174,
  "Longitude": 158.1588,
  "Population": 6996,
  "Capital Type": "Capital"
 },
 {
  "Country": "Monaco",
  "Capital City": "Monaco",
  "Latitude": 43.7333,
  "Longitude": 7.4167,
  "Population": 38897,
  "Capital Type": "Capital"
 },
 {
  "Country": "Mongolia",
  "Capital City": "Ulaanbaatar",
  "Latitude": 47.9077,
  "Longitude": 106.8832,
  "Population": 1520381,
  "Capital Type": "Capital"
 },
 {
  "Country": "Montenegro",
  "Capital City": "Podgorica",
  "Latitude": 42.4411,
  "Longitude": 19.2636,
  "Population": 177177,
  "Capital Type": "Capital"
 },
 {
  "Country": "Montserrat",
  "Capital City": "Brades Estate",
  "Latitude": 16.7918,
  "Longitude": -62.2106,
  "Population": 472,
  "Capital Type": "Capital"
 },
 {
  "Country": "Morocco",
  "Capital City": "Rabat",
  "Latitude": 34.0133,
  "Longitude": -6.8326,
  "Population": 1846661,
  "Capital Type": "Capital"
 },
 {
  "Country": "Mozambique",
  "Capital City": "Maputo",
  "Latitude": -25.9653,
  "Longitude": 32.5892,
  "Population": 1101771,
  "Capital Type": "Capital"
 },
 {
  "Country": "Myanmar",
  "Capital City": "Nay Pyi Taw",
  "Latitude": 19.745,
  "Longitude": 96.1297,
  "Population": 500218,
  "Capital Type": "Capital"
 },
 {
  "Country": "Namibia",
  "Capital City": "Windhoek",
  "Latitude": -22.5594,
  "Longitude": 17.0832,
  "Population": 404280,
  "Capital Type": "Capital"
 },
 {
  "Country": "Nauru",
  "Capital City": "Nauru",
  "Latitude": -0.5308,
  "Longitude": 166.9112,
  "Population": 11312,
  "Capital Type": "Capital"
 },
 {
  "Country": "Nepal",
  "Capital City": "Kathmandu",
  "Latitude": 27.7017,
  "Longitude": 85.3206,
  "Population": 1329732,
  "Capital Type": "Capital"
 },
 {
  "Country": "Netherlands",
  "Capital City": "Amsterdam",
  "Latitude": 52.374,
  "Longitude": 4.8897,
  "Population": 1131690,
  "Capital Type": "Capital"
 },
 {
  "Country": "New Caledonia",
  "Capital City": "Nouméa",
  "Latitude": -22.2763,
  "Longitude": 166.4572,
  "Population": 197787,
  "Capital Type": "Capital"
 },
 {
  "Country": "New Zealand",
  "Capital City": "Wellington",
  "Latitude": -41.2866,
  "Longitude": 174.7756,
  "Population": 411346,
  "Capital Type": "Capital"
 },
 {
  "Country": "Nicaragua",
  "Capital City": "Managua",
  "Latitude": 12.1328,
  "Longitude": -86.2504,
  "Population": 1047923,
  "Capital Type": "Capital"
 },
 {
  "Country": "Niger",
  "Capital City": "Niamey",
  "Latitude": 13.5137,
  "Longitude": 2.1098,
  "Population": 1213781,
  "Capital Type": "Capital"
 },
 {
  "Country": "Nigeria",
  "Capital City": "Abuja",
  "Latitude": 9.0574,
  "Longitude": 7.4898,
  "Population": 2918518,
  "Capital Type": "Capital"
 },
 {
  "Country": "Niue",
  "Capital City": "Alofi",
  "Latitude": -19.0585,
  "Longitude": -169.9213,
  "Population": 727,
  "Capital Type": "Capital"
 },
 {
  "Country": "Northern Mariana Islands",
  "Capital City": "Saipan",
  "Latitude": 15.2123,
  "Longitude": 145.7545,
  "Population": 50568,
  "Capital Type": "Capital"
 },
 {
  "Country": "Norway",
  "Capital City": "Oslo",
  "Latitude": 59.9127,
  "Longitude": 10.7461,
  "Population": 1012225,
  "Capital Type": "Capital"
 },
 {
  "Country": "Oman",
  "Capital City": "Masqat (Muscat)",
  "Latitude": 23.6139,
  "Longitude": 58.5922,
  "Population": 1446563,
  "Capital Type": "Capital"
 },
 {
  "Country": "Pakistan",
  "Capital City": "Islamabad",
  "Latitude": 33.7035,
  "Longitude": 73.0594,
  "Population": 1061412,
  "Capital Type": "Capital"
 },
 {
  "Country": "Palau",
  "Capital City": "Koror",
  "Latitude": 7.3426,
  "Longitude": 134.4789,
  "Population": 11410,
  "Capital Type": "Capital"
 },
 {
  "Country": "Panama",
  "Capital City": "Ciudad de Panamá (Panama City)",
  "Latitude": 8.9958,
  "Longitude": -79.5196,
  "Population": 1783490,
  "Capital Type": "Capital"
 },
 {
  "Country": "Papua New Guinea",
  "Capital City": "Port Moresby",
  "Latitude": -9.4431,
  "Longitude": 147.1797,
  "Population": 366862,
  "Capital Type": "Capital"
 },
 {
  "Country": "Paraguay",
  "Capital City": "Asunción",
  "Latitude": -25.3007,
  "Longitude": -57.6359,
  "Population": 3222199,
  "Capital Type": "Capital"
 },
 {
  "Country": "Peru",
  "Capital City": "Lima",
  "Latitude": -12.0432,
  "Longitude": -77.0282,
  "Population": 10390607,
  "Capital Type": "Capital"
 },
 {
  "Country": "Philippines",
  "Capital City": "Manila",
  "Latitude": 14.6042,
  "Longitude": 120.9822,
  "Population": 13482468,
  "Capital Type": "Capital"
 },
 {
  "Country": "Poland",
  "Capital City": "Warszawa (Warsaw)",
  "Latitude": 52.2298,
  "Longitude": 21.0118,
  "Population": 1767798,
  "Capital Type": "Capital"
 },
 {
  "Country": "Portugal",
  "Capital City": "Lisboa (Lisbon)",
  "Latitude": 38.7169,
  "Longitude": -9.1399,
  "Population": 2927316,
  "Capital Type": "Capital"
 },
 {
  "Country": "Puerto Rico",
  "Capital City": "San Juan",
  "Latitude": 18.4663,
  "Longitude": -66.1057,
  "Population": 2454337,
  "Capital Type": "Capital"
 },
 {
  "Country": "Qatar",
  "Capital City": "Ad-Dawhah (Doha)",
  "Latitude": 25.2747,
  "Longitude": 51.5245,
  "Population": 633401,
  "Capital Type": "Capital"
 },
 {
  "Country": "Republic of Korea",
  "Capital City": "Seoul",
  "Latitude": 37.5683,
  "Longitude": 126.9778,
  "Population": 9963497,
  "Capital Type": "Capital"
 },
 {
  "Country": "Republic of Moldova",
  "Capital City": "Chişinău",
  "Latitude": 47.0056,
  "Longitude": 28.8575,
  "Population": 509707,
  "Capital Type": "Capital"
 },
 {
  "Country": "Réunion",
  "Capital City": "Saint-Denis",
  "Latitude": -20.8823,
  "Longitude": 55.4504,
  "Population": 147209,
  "Capital Type": "Capital"
 },
 {
  "Country": "Romania",
  "Capital City": "Bucuresti (Bucharest)",
  "Latitude": 44.4328,
  "Longitude": 26.1043,
  "Population": 1821380,
  "Capital Type": "Capital"
 },
 {
  "Country": "Russian Federation",
  "Capital City": "Moskva (Moscow)",
  "Latitude": 55.755,
  "Longitude": 37.6218,
  "Population": 12409738,
  "Capital Type": "Capital"
 },
 {
  "Country": "Rwanda",
  "Capital City": "Kigali",
  "Latitude": -1.9474,
  "Longitude": 30.0579,
  "Population": 1057836,
  "Capital Type": "Capital"
 },
 {
  "Country": "Saint Helena",
  "Capital City": "Jamestown",
  "Latitude": -15.9387,
  "Longitude": -5.7168,
  "Population": 603,
  "Capital Type": "Capital"
 },
 {
  "Country": "Saint Kitts and Nevis",
  "Capital City": "Basseterre",
  "Latitude": 17.2948,
  "Longitude": -62.7261,
  "Population": 14434,
  "Capital Type": "Capital"
 },
 {
  "Country": "Saint Lucia",
  "Capital City": "Castries",
  "Latitude": 14.006,
  "Longitude": -60.991,
  "Population": 22258,
  "Capital Type": "Capital"
 },
 {
  "Country": "Saint Pierre and Miquelon",
  "Capital City": "Saint-Pierre",
  "Latitude": 46.7738,
  "Longitude": -56.1815,
  "Population": 5723,
  "Capital Type": "Capital"
 },
 {
  "Country": "Saint Vincent and the Grenadines",
  "Capital City": "Kingstown",
  "Latitude": 13.1587,
  "Longitude": -61.2248,
  "Population": 26636,
  "Capital Type": "Capital"
 },
 {
  "Country": "Samoa",
  "Capital City": "Apia",
  "Latitude": -13.8333,
  "Longitude": -171.7667,
  "Population": 36066,
  "Capital Type": "Capital"
 },
 {
  "Country": "San Marino",
  "Capital City": "San Marino",
  "Latitude": 43.9333,
  "Longitude": 12.45,
  "Population": 4465,
  "Capital Type": "Capital"
 },
 {
  "Country": "Sao Tome and Principe",
  "Capital City": "São Tomé",
  "Latitude": 0.3365,
  "Longitude": 6.7273,
  "Population": 80099,
  "Capital Type": "Capital"
 },
 {
  "Country": "Saudi Arabia",
  "Capital City": "Ar-Riyadh (Riyadh)",
  "Latitude": 24.6905,
  "Longitude": 46.7096,
  "Population": 6906595,
  "Capital Type": "Capital"
 },
 {
  "Country": "Senegal",
  "Capital City": "Dakar",
  "Latitude": 14.6937,
  "Longitude": -17.4441,
  "Population": 2978419,
  "Capital Type": "Capital"
 },
 {
  "Country": "Serbia",
  "Capital City": "Beograd (Belgrade)",
  "Latitude": 44.8176,
  "Longitude": 20.4633,
  "Population": 1389351,
  "Capital Type": "Capital"
 },
 {
  "Country": "Seychelles",
  "Capital City": "Victoria",
  "Latitude": -4.6167,
  "Longitude": 55.45,
  "Population": 28091,
  "Capital Type": "Capital"
 },
 {
  "Country": "Sierra Leone",
  "Capital City": "Freetown",
  "Latitude": 8.484,
  "Longitude": -13.2299,
  "Population": 1135949,
  "Capital Type": "Capital"
 },
 {
  "Country": "Singapore",
  "Capital City": "Singapore",
  "Latitude": 1.2897,
  "Longitude": 103.8501,
  "Population": 5791901,
  "Capital Type": "Capital"
 },
 {
  "Country": "Sint Maarten (Dutch part)",
  "Capital City": "Philipsburg",
  "Latitude": 18.026,
  "Longitude": -63.0458,
  "Population": 40552,
  "Capital Type": "Capital"
 },
 {
  "Country": "Slovakia",
  "Capital City": "Bratislava",
  "Latitude": 48.1482,
  "Longitude": 17.1067,
  "Population": 429920,
  "Capital Type": "Capital"
 },
 {
  "Country": "Slovenia",
  "Capital City": "Ljubljana",
  "Latitude": 46.0511,
  "Longitude": 14.5051,
  "Population": 286491,
  "Capital Type": "Capital"
 },
 {
  "Country": "Solomon Islands",
  "Capital City": "Honiara",
  "Latitude": -9.4333,
  "Longitude": 159.95,
  "Population": 81801,
  "Capital Type": "Capital"
 },
 {
  "Country": "Somalia",
  "Capital City": "Muqdisho (Mogadishu)",
  "Latitude": 2.0416,
  "Longitude": 45.3435,
  "Population": 2081624,
  "Capital Type": "Capital"
 },
 {
  "Country": "South Africa",
  "Capital City": "Cape Town",
  "Latitude": -33.9258,
  "Longitude": 18.4232,
  "Population": 4430367,
  "Capital Type": "Legislative Capital"
 },
 {
  "Country": "South Sudan",
  "Capital City": "Juba",
  "Latitude": 4.8517,
  "Longitude": 31.5825,
  "Population": 368914,
  "Capital Type": "Capital"
 },
 {
  "Country": "Spain",
  "Capital City": "Madrid",
  "Latitude": 40.4165,
  "Longitude": -3.7026,
  "Population": 6497124,
  "Capital Type": "Capital"
 },
 {
  "Country": "Sri Lanka",
  "Capital City": "Colombo",
  "Latitude": 6.9319,
  "Longitude": 79.8478,
  "Population": 599821,
  "Capital Type": "Capital"
 },
 {
  "Country": "State of Palestine",
  "Capital City": "Al-Quds[East Jerusalem]",
  "Latitude": 31.7834,
  "Longitude": 35.2339,
  "Population": 275086,
  "Capital Type": "Capital"
 },
 {
  "Country": "Sudan",
  "Capital City": "Al-Khartum (Khartoum)",
  "Latitude": 15.5518,
  "Longitude": 32.5324,
  "Population": 5534079,
  "Capital Type": "Capital"
 },
 {
  "Country": "Suriname",
  "Capital City": "Paramaribo",
  "Latitude": 5.8664,
  "Longitude": -55.1668,
  "Population": 239457,
  "Capital Type": "Capital"
 },
 {
  "Country": "Swaziland",
  "Capital City": "Mbabane",
  "Latitude": -26.3167,
  "Longitude": 31.1333,
  "Population": 68010,
  "Capital Type": "Capital"
 },
 {
  "Country": "Sweden",
  "Capital City": "Stockholm",
  "Latitude": 59.3326,
  "Longitude": 18.0649,
  "Population": 1582968,
  "Capital Type": "Capital"
 },
 {
  "Country": "Switzerland",
  "Capital City": "Bern",
  "Latitude": 46.9481,
  "Longitude": 7.4474,
  "Population": 422153,
  "Capital Type": "Capital"
 },
 {
  "Country": "Syrian Arab Republic",
  "Capital City": "Dimashq (Damascus)",
  "Latitude": 33.5086,
  "Longitude": 36.3084,
  "Population": 2319545,
  "Capital Type": "Capital"
 },
 {
  "Country": "Tajikistan",
  "Capital City": "Dushanbe",
  "Latitude": 38.5358,
  "Longitude": 68.7791,
  "Population": 872653,
  "Capital Type": "Capital"
 },
 {
  "Country": "TFYR Macedonia",
  "Capital City": "Skopje",
  "Latitude": 42,
  "Longitude": 21.4333,
  "Population": 584208,
  "Capital Type": "Capital"
 },
 {
  "Country": "Thailand",
  "Capital City": "Krung Thep (Bangkok)",
  "Latitude": 13.722,
  "Longitude": 100.5252,
  "Population": 10156316,
  "Capital Type": "Capital"
 },
 {
  "Country": "Timor-Leste",
  "Capital City": "Dili",
  "Latitude": -8.5601,
  "Longitude": 125.5668,
  "Population": 281135,
  "Capital Type": "Capital"
 },
 {
  "Country": "Togo",
  "Capital City": "Lomé",
  "Latitude": 6.1375,
  "Longitude": 1.2123,
  "Population": 1745744,
  "Capital Type": "Capital"
 },
 {
  "Country": "Tokelau",
  "Capital City": "Tokelau",
  "Latitude": -9.38,
  "Longitude": -171.25,
  "Population": 0,
  "Capital Type": "Others"
 },
 {
  "Country": "Tonga",
  "Capital City": "Nuku'alofa",
  "Latitude": -21.1394,
  "Longitude": -175.2032,
  "Population": 22904,
  "Capital Type": "Capital"
 },
 {
  "Country": "Trinidad and Tobago",
  "Capital City": "Port of Spain",
  "Latitude": 10.6662,
  "Longitude": -61.5166,
  "Population": 544417,
  "Capital Type": "Capital"
 },
 {
  "Country": "Tunisia",
  "Capital City": "Tunis",
  "Latitude": 36.819,
  "Longitude": 10.1658,
  "Population": 2290777,
  "Capital Type": "Capital"
 },
 {
  "Country": "Turkey",
  "Capital City": "Ankara",
  "Latitude": 39.9199,
  "Longitude": 32.8543,
  "Population": 4919074,
  "Capital Type": "Capital"
 },
 {
  "Country": "Turkmenistan",
  "Capital City": "Ashgabat",
  "Latitude": 37.95,
  "Longitude": 58.3833,
  "Population": 810186,
  "Capital Type": "Capital"
 },
 {
  "Country": "Turks and Caicos Islands",
  "Capital City": "Cockburn Town",
  "Latitude": 21.4612,
  "Longitude": -71.1419,
  "Population": 5447,
  "Capital Type": "Capital"
 },
 {
  "Country": "Tuvalu",
  "Capital City": "Funafuti",
  "Latitude": -8.5189,
  "Longitude": 179.1991,
  "Population": 7042,
  "Capital Type": "Capital"
 },
 {
  "Country": "Uganda",
  "Capital City": "Kampala",
  "Latitude": 0.3163,
  "Longitude": 32.5822,
  "Population": 2986352,
  "Capital Type": "Capital"
 },
 {
  "Country": "Ukraine",
  "Capital City": "Kyiv (Kiev)",
  "Latitude": 50.4454,
  "Longitude": 30.5186,
  "Population": 2956706,
  "Capital Type": "Capital"
 },
 {
  "Country": "United Arab Emirates",
  "Capital City": "Abu Zaby (Abu Dhabi)",
  "Latitude": 24.4648,
  "Longitude": 54.3618,
  "Population": 1419699,
  "Capital Type": "Capital"
 },
 {
  "Country": "United Kingdom",
  "Capital City": "London",
  "Latitude": 51.5085,
  "Longitude": -0.1257,
  "Population": 9046485,
  "Capital Type": "Capital"
 },
 {
  "Country": "United Republic of Tanzania",
  "Capital City": "Dodoma",
  "Latitude": -6.1722,
  "Longitude": 35.7395,
  "Population": 261645,
  "Capital Type": "Capital"
 },
 {
  "Country": "United States of America",
  "Capital City": "Washington, D.C.",
  "Latitude": 38.8951,
  "Longitude": -77.0364,
  "Population": 5206593,
  "Capital Type": "Capital"
 },
 {
  "Country": "United States Virgin Islands",
  "Capital City": "Charlotte Amalie",
  "Latitude": 18.3419,
  "Longitude": -64.9307,
  "Population": 52322,
  "Capital Type": "Capital"
 },
 {
  "Country": "Uruguay",
  "Capital City": "Montevideo",
  "Latitude": -34.8335,
  "Longitude": -56.1674,
  "Population": 1736989,
  "Capital Type": "Capital"
 },
 {
  "Country": "Uzbekistan",
  "Capital City": "Tashkent",
  "Latitude": 41.2647,
  "Longitude": 69.2163,
  "Population": 2463969,
  "Capital Type": "Capital"
 },
 {
  "Country": "Vanuatu",
  "Capital City": "Port Vila",
  "Latitude": -17.7338,
  "Longitude": 168.3219,
  "Population": 52690,
  "Capital Type": "Capital"
 },
 {
  "Country": "Venezuela (Bolivarian Republic of)",
  "Capital City": "Caracas",
  "Latitude": 10.488,
  "Longitude": -66.8792,
  "Population": 2934560,
  "Capital Type": "Capital"
 },
 {
  "Country": "Viet Nam",
  "Capital City": "Hà Noi",
  "Latitude": 21.0245,
  "Longitude": 105.8412,
  "Population": 4282738,
  "Capital Type": "Capital"
 },
 {
  "Country": "Wallis and Futuna Islands",
  "Capital City": "Matu-Utu",
  "Latitude": -13.2816,
  "Longitude": -176.1745,
  "Population": 1025,
  "Capital Type": "Capital"
 },
 {
  "Country": "Western Sahara",
  "Capital City": "El Aaiún",
  "Latitude": 27.1532,
  "Longitude": -13.2014,
  "Population": 232388,
  "Capital Type": "Capital"
 },
 {
  "Country": "Yemen",
  "Capital City": "Sana'a'",
  "Latitude": 15.3531,
  "Longitude": 44.2078,
  "Population": 2779317,
  "Capital Type": "Capital"
 },
 {
  "Country": "Zambia",
  "Capital City": "Lusaka",
  "Latitude": -15.4134,
  "Longitude": 28.2771,
  "Population": 2523844,
  "Capital Type": "Capital"
 },
 {
  "Country": "Zimbabwe",
  "Capital City": "Harare",
  "Latitude": -17.8294,
  "Longitude": 31.0539,
  "Population": 1515016,
  "Capital Type": "Capital"
 }
]